[
    {
        "PropertyId": "",
        "district": "Brickfields",
        "region": "Kuala Lumpur",
        "name": "Mansion",
        "address": "Jalan Tebing, 50470, Kuala Lumpur",
        "facilities": [],
        "link": "https://www.propertyguru.com.my/condo/mansion-22316",
        "type": "Condominium",
        "coordinates": { "latitude": 3.133027, "longitude": 101.691864 }
    },
    {
        "PropertyId": "",
        "district": "Ulu Kelang",
        "region": "Kuala Lumpur",
        "name": "Quarza",
        "address": "Desa Melawati, 53100, Kuala Lumpur",
        "facilities": ["Swimming pool"],
        "link": "https://www.propertyguru.com.my/condo/quarza-22315",
        "type": "Service Residence",
        "coordinates": { "latitude": 3.227312, "longitude": 101.738147 }
    },
    {
        "PropertyId": "",
        "district": "Bangsar",
        "region": "Kuala Lumpur",
        "name": "Bangsar Utama Apartment",
        "address": "Jalan Bangsar Utama 5, 59100, Kuala Lumpur",
        "facilities": [],
        "link": "https://www.propertyguru.com.my/condo/bangsar-utama-apartment-22314",
        "type": "Apartment",
        "coordinates": { "latitude": 3.128926, "longitude": 101.677068 }
    },
    {
        "PropertyId": "",
        "district": "Setapak",
        "region": "Kuala Lumpur",
        "name": "Merdu Residensi",
        "address": "Jalan Usahawan 6, 53200, Kuala Lumpur",
        "facilities": [],
        "link": "https://www.propertyguru.com.my/condo/merdu-residensi-22313",
        "type": "Service Residence",
        "coordinates": { "latitude": 3.195421, "longitude": 101.722957 }
    },
    {
        "PropertyId": "",
        "district": "Setapak",
        "region": "Kuala Lumpur",
        "name": "PV22 Residences",
        "address": "Jalan Usahawan Off Jalan Genting Kelang, 53300, Kuala Lumpur",
        "facilities": [],
        "link": "https://www.propertyguru.com.my/condo/pv22-residences-22312",
        "type": "Service Residence",
        "coordinates": { "latitude": 3.200753, "longitude": 101.720669 }
    },
    {
        "PropertyId": "",
        "district": "Sri Hartamas",
        "region": "Kuala Lumpur",
        "name": "Plaza Damas",
        "address": "Jalan Sri Hartamas 1, 50400, Kuala Lumpur",
        "facilities": [],
        "link": "https://www.propertyguru.com.my/condo/plaza-damas-22311",
        "type": "Service Residence",
        "coordinates": { "latitude": 3.163914, "longitude": 101.656982 }
    },
    {
        "PropertyId": "",
        "district": "KL City Centre",
        "region": "Kuala Lumpur",
        "name": "Angkasa Impian 1",
        "address": "Jalan Tengkat Tong Shin, 50200, Kuala Lumpur",
        "facilities": [
            "Barbeque Area",
            "Car Park",
            "Gymnasium room",
            "Playground",
            "Sauna",
            "24 hours security",
            "Squash court",
            "Swimming pool"
        ],
        "link": "https://www.propertyguru.com.my/condo/angkasa-impian-1-22310",
        "type": "Condominium",
        "coordinates": { "latitude": 3.145678, "longitude": 101.706323 }
    },
    {
        "PropertyId": "",
        "district": "Cheras",
        "region": "Kuala Lumpur",
        "name": "Taman Desa Cheras",
        "address": "Jalan 3/154d, Taman Desa Cheras, 56000, Kuala Lumpur",
        "facilities": [],
        "link": "https://www.propertyguru.com.my/condo/taman-desa-cheras-22276",
        "type": "Flat",
        "coordinates": { "latitude": 3.055335, "longitude": 101.73834 }
    },
    {
        "PropertyId": "",
        "district": "Keramat",
        "region": "Kuala Lumpur",
        "name": "Datum Jelatek (LINQ Sky Residence)",
        "address": "Jalan Jelatek, 54200, Kuala Lumpur",
        "facilities": [
            "Barbeque Area",
            "Car Park",
            "Gymnasium room",
            "Jacuzzi",
            "Playground",
            "24 hours security",
            "Swimming pool",
            "Wading pool"
        ],
        "link": "https://www.propertyguru.com.my/condo/datum-jelatek-linq-sky-residence-22275",
        "type": "Service Residence",
        "coordinates": { "latitude": 3.1674, "longitude": 101.736093 }
    },
    {
        "PropertyId": "",
        "district": "Damansara Heights",
        "region": "Kuala Lumpur",
        "name": "Damansara Fifty6",
        "address": "Jalan Bukit Ledang, 50480, Kuala Lumpur",
        "facilities": [],
        "link": "https://www.propertyguru.com.my/condo/damansara-fifty6-22274",
        "type": "Condominium",
        "coordinates": { "latitude": 3.150084, "longitude": 101.670312 }
    },
    {
        "PropertyId": "",
        "district": "KL City Centre",
        "region": "Kuala Lumpur",
        "name": "Jalan Padang Walter Grenier Flat",
        "address": "Jalan Padang Walter Grenier, 55100, Kuala Lumpur",
        "facilities": [],
        "link": "https://www.propertyguru.com.my/condo/jalan-padang-walter-grenier-flat-22273",
        "type": "Flat",
        "coordinates": { "latitude": 3.144793, "longitude": 101.713348 }
    },
    {
        "PropertyId": "",
        "district": "Sentul",
        "region": "Kuala Lumpur",
        "name": "PPR Batu Muda",
        "address": "Jalan 3/12D, 51100, Kuala Lumpur",
        "facilities": [],
        "link": "https://www.propertyguru.com.my/condo/ppr-batu-muda-22246",
        "type": "Flat",
        "coordinates": { "latitude": 3.207184, "longitude": 101.682099 }
    },
    {
        "PropertyId": "",
        "district": "Sentul",
        "region": "Kuala Lumpur",
        "name": "Perumahan Awam Seri Negeri Sembilan",
        "address": "Jalan 2/48A, 51000, Kuala Lumpur",
        "facilities": [],
        "link": "https://www.propertyguru.com.my/condo/perumahan-awam-seri-negeri-sembilan-22245",
        "type": "Flat",
        "coordinates": { "latitude": 3.182004, "longitude": 101.694972 }
    },
    {
        "PropertyId": "",
        "district": "Cheras",
        "region": "Kuala Lumpur",
        "name": "Taman Cheras (Yulek Heights)",
        "address": "Taman Cheras, 56100, Kuala Lumpur",
        "facilities": [],
        "link": "https://www.propertyguru.com.my/condo/taman-cheras-yulek-heights-22244",
        "type": "Flat",
        "coordinates": { "latitude": 3.103034, "longitude": 101.751847 }
    },
    {
        "PropertyId": "",
        "district": "KL City Centre",
        "region": "Kuala Lumpur",
        "name": "Flat DBKL Jalan Hang Tuah",
        "address": "Jalan Hang Tuah, 55200, Kuala Lumpur",
        "facilities": [],
        "link": "https://www.propertyguru.com.my/condo/flat-dbkl-jalan-hang-tuah-22243",
        "type": "Flat",
        "coordinates": { "latitude": 3.138486, "longitude": 101.70296 }
    },
    {
        "PropertyId": "",
        "district": "Setapak",
        "region": "Kuala Lumpur",
        "name": "DBKL",
        "address": "Jalan Rejang 11, Setapak Jaya, 5330, Kuala Lumpur",
        "facilities": [],
        "link": "https://www.propertyguru.com.my/condo/dbkl-22242",
        "type": "Apartment",
        "coordinates": { "latitude": 3.194338, "longitude": 101.725389 }
    },
    {
        "PropertyId": "",
        "district": "Jalan Klang Lama (Old Klang Road)",
        "region": "Kuala Lumpur",
        "name": "OUG Parklane",
        "address": "Jalan 1/152, 58200, Kuala Lumpur",
        "facilities": [
            "Car Park",
            "Playground",
            "24 hours security",
            "Swimming pool",
            "Wading pool"
        ],
        "link": "https://www.propertyguru.com.my/condo/oug-parklane-22241",
        "type": "Service Residence",
        "coordinates": { "latitude": 3.068471, "longitude": 101.656483 }
    },
    {
        "PropertyId": "",
        "district": "Setapak",
        "region": "Kuala Lumpur",
        "name": "Danau Setapak",
        "address": "Jalan 1a/6, 53300, Kuala Lumpur",
        "facilities": [],
        "link": "https://www.propertyguru.com.my/condo/danau-setapak-22211",
        "type": "Service Residence",
        "coordinates": { "latitude": 3.209146, "longitude": 101.719036 }
    },
    {
        "PropertyId": "",
        "district": "KL City Centre",
        "region": "Kuala Lumpur",
        "name": "Star Residences One",
        "address": "Jalan Yap Kwan Seng, 50450, Kuala Lumpur",
        "facilities": [],
        "link": "https://www.propertyguru.com.my/condo/star-residences-one-22210",
        "type": "Service Residence",
        "coordinates": { "latitude": 3.161434, "longitude": 101.712587 }
    },
    {
        "PropertyId": "",
        "district": "Mont Kiara",
        "region": "Kuala Lumpur",
        "name": "Urbane Tower",
        "address": "Jalan Dutamas 1, Mont Kiara, 50480, Kuala Lumpur",
        "facilities": [
            "Barbeque Area",
            "Car Park",
            "Gymnasium room",
            "Playground",
            "24 hours security",
            "Wading pool"
        ],
        "link": "https://www.propertyguru.com.my/condo/urbane-tower-22209",
        "type": "Condominium",
        "coordinates": { "latitude": 3.171489, "longitude": 101.665407 }
    },
    {
        "PropertyId": "",
        "district": "Jalan Klang Lama (Old Klang Road)",
        "region": "Kuala Lumpur",
        "name": "Residensi Riamas",
        "address": "Jalan Klang Lama, 58200, Kuala Lumpur",
        "facilities": [],
        "link": "https://www.propertyguru.com.my/condo/residensi-riamas-22208",
        "type": "Apartment",
        "coordinates": { "latitude": 3.081065, "longitude": 101.667182 }
    },
    {
        "PropertyId": "",
        "district": "Pantai",
        "region": "Kuala Lumpur",
        "name": "Nestree Residence",
        "address": "Jalan 1/112e, 59200, Kuala Lumpur",
        "facilities": [],
        "link": "https://www.propertyguru.com.my/condo/nestree-residence-22207",
        "type": "Condominium",
        "coordinates": { "latitude": 3.100635, "longitude": 101.668635 }
    },
    {
        "PropertyId": "",
        "district": "Bangsar",
        "region": "Kuala Lumpur",
        "name": "One Eleven Menerung",
        "address": "Jalan Menerung, Kuala Lumpur",
        "facilities": [],
        "link": "https://www.propertyguru.com.my/condo/one-eleven-menerung-22206",
        "type": "Service Residence",
        "coordinates": { "latitude": 3.144464, "longitude": 101.664637 }
    },
    {
        "PropertyId": "",
        "district": "Setapak",
        "region": "Kuala Lumpur",
        "name": "Padang Residences",
        "address": "Jalan Sultan Yahya Petra, 54100, Kuala Lumpur",
        "facilities": [],
        "link": "https://www.propertyguru.com.my/condo/padang-residences-22179",
        "type": "Service Residence",
        "coordinates": { "latitude": 3.184146, "longitude": 101.722121 }
    },
    {
        "PropertyId": "",
        "district": "Kl Sentral",
        "region": "Kuala Lumpur",
        "name": "The Sentral Residences",
        "address": "Jalan Stesen Sentral 2, 50470, Kuala Lumpur",
        "facilities": ["Car Park", "24 hours security"],
        "link": "https://www.propertyguru.com.my/condo/the-sentral-residences-22178",
        "type": "Service Residence",
        "coordinates": { "latitude": 3.136681, "longitude": 101.689735 }
    },
    {
        "PropertyId": "",
        "district": "Jalan Klang Lama (Old Klang Road)",
        "region": "Kuala Lumpur",
        "name": "Bukit Awansari (OG Court)",
        "address": "Jalan Awan Jawa, 58200, Kuala Lumpur",
        "facilities": [
            "Car Park",
            "Gymnasium room",
            "Playground",
            "24 hours security",
            "Swimming pool"
        ],
        "link": "https://www.propertyguru.com.my/condo/bukit-awansari-og-court-22177",
        "type": "Condominium",
        "coordinates": { "latitude": 3.075702, "longitude": 101.665549 }
    },
    {
        "PropertyId": "",
        "district": "Pantai",
        "region": "Kuala Lumpur",
        "name": "Desa Pantai Flat",
        "address": "Jalan Pantai Dalam, 59200, Kuala Lumpur",
        "facilities": [],
        "link": "https://www.propertyguru.com.my/condo/desa-pantai-flat-22154",
        "type": "Flat",
        "coordinates": { "latitude": 3.102979, "longitude": 101.664143 }
    },
    {
        "PropertyId": "",
        "district": "Cheras",
        "region": "Kuala Lumpur",
        "name": "The Locus",
        "address": "Batu2 1/2 Jalan Cheras, 56100, Kuala Lumpur",
        "facilities": [],
        "link": "https://www.propertyguru.com.my/condo/the-locus-22153",
        "type": "Service Residence",
        "coordinates": { "latitude": 3.127418, "longitude": 101.719853 }
    },
    {
        "PropertyId": "",
        "district": "Cheras",
        "region": "Kuala Lumpur",
        "name": "Taman Bukit Segar",
        "address": "Taman Bukit Segar, 56100, Kuala Lumpur",
        "facilities": [],
        "link": "https://www.propertyguru.com.my/condo/taman-bukit-segar-22152",
        "type": "Flat",
        "coordinates": { "latitude": 3.087169, "longitude": 101.745398 }
    },
    {
        "PropertyId": "",
        "district": "Desa Parkcity",
        "region": "Kuala Lumpur",
        "name": "Noora",
        "address": "Jalan Residen Utama, 52200, Kuala Lumpur",
        "facilities": [],
        "link": "https://www.propertyguru.com.my/condo/noora-22151",
        "type": "Service Residence",
        "coordinates": { "latitude": 3.182191, "longitude": 101.6332 }
    },
    {
        "PropertyId": "",
        "district": "Cheras",
        "region": "Kuala Lumpur",
        "name": "Seri Cendekia Flat",
        "address": "Jalan 3/124, 56000, Kuala Lumpur",
        "facilities": [],
        "link": "https://www.propertyguru.com.my/condo/seri-cendekia-flat-22150",
        "type": "Flat",
        "coordinates": { "latitude": 3.083836, "longitude": 101.728209 }
    },
    {
        "PropertyId": "",
        "district": "Wangsa Maju",
        "region": "Kuala Lumpur",
        "name": "J.Satine",
        "address": "Jalan Kilang, 53300, Kuala Lumpur",
        "facilities": [],
        "link": "https://www.propertyguru.com.my/condo/j-satine-22149",
        "type": "Service Residence",
        "coordinates": { "latitude": 3.202203, "longitude": 101.726033 }
    },
    {
        "PropertyId": "",
        "district": "Jalan Klang Lama (Old Klang Road)",
        "region": "Kuala Lumpur",
        "name": "The Maple Residences",
        "address": "Jalan Hujan Bubuk, 58200, Kuala Lumpur",
        "facilities": [],
        "link": "https://www.propertyguru.com.my/condo/the-maple-residences-22123",
        "type": "Condominium",
        "coordinates": { "latitude": 3.065259, "longitude": 101.676889 }
    },
    {
        "PropertyId": "",
        "district": "Sentul",
        "region": "Kuala Lumpur",
        "name": "Hock Lock Mansion",
        "address": "Jalan Union, 51100, Kuala Lumpur",
        "facilities": [],
        "link": "https://www.propertyguru.com.my/condo/hock-lock-mansion-22122",
        "type": "Flat",
        "coordinates": { "latitude": 3.177279, "longitude": 101.692284 }
    },
    {
        "PropertyId": "",
        "district": "Cheras",
        "region": "Kuala Lumpur",
        "name": "Taman Segar",
        "address": "Persiaran Segar, Taman Segar, 56100, Kuala Lumpur",
        "facilities": [],
        "link": "https://www.propertyguru.com.my/condo/taman-segar-22121",
        "type": "Flat",
        "coordinates": { "latitude": 3.088315, "longitude": 101.746827 }
    },
    {
        "PropertyId": "",
        "district": "Wangsa Maju",
        "region": "Kuala Lumpur",
        "name": "Milla Residence @ The Quartz WM",
        "address": "Jalan 34/26, 53300, Kuala Lumpur",
        "facilities": [],
        "link": "https://www.propertyguru.com.my/condo/milla-residence-the-quartz-wm-22120",
        "type": "Service Residence",
        "coordinates": { "latitude": 3.190371, "longitude": 101.736323 }
    },
    {
        "PropertyId": "",
        "district": "Desa Petaling",
        "region": "Kuala Lumpur",
        "name": "Amadesa Resort Condominium",
        "address": "Jalan 5/125, 57100, Kuala Lumpur",
        "facilities": [
            "Car Park",
            "Gymnasium room",
            "Mini-Mart",
            "24 hours security",
            "Swimming pool",
            "Tennis courts"
        ],
        "link": "https://www.propertyguru.com.my/condo/amadesa-resort-condominium-22085",
        "type": "Condominium",
        "coordinates": { "latitude": 3.084251, "longitude": 101.7028 }
    },
    {
        "PropertyId": "",
        "district": "KL City Centre",
        "region": "Kuala Lumpur",
        "name": "Jalan Galloway",
        "address": "Jalan Galloway, 55100, Kuala Lumpur",
        "facilities": [],
        "link": "https://www.propertyguru.com.my/condo/jalan-galloway-22084",
        "type": "Flat",
        "coordinates": { "latitude": 3.142356, "longitude": 101.704651 }
    },
    {
        "PropertyId": "",
        "district": "Segambut",
        "region": "Kuala Lumpur",
        "name": "Taman Indah Murni",
        "address": "Taman Indah Murni, 51200, Kuala Lumpur",
        "facilities": [],
        "link": "https://www.propertyguru.com.my/condo/taman-indah-murni-22083",
        "type": "Flat",
        "coordinates": { "latitude": 3.185479, "longitude": 101.67397 }
    },
    {
        "PropertyId": "",
        "district": "Segambut",
        "region": "Kuala Lumpur",
        "name": "Laman Vila Low-Rise Villa",
        "address": "Bukit Prima Pelangi, 51200, Kuala Lumpur",
        "facilities": [],
        "link": "https://www.propertyguru.com.my/condo/laman-vila-low-rise-villa-22082",
        "type": "Condominium",
        "coordinates": { "latitude": 3.178397, "longitude": 101.649247 }
    },
    {
        "PropertyId": "",
        "district": "Bukit Jalil",
        "region": "Kuala Lumpur",
        "name": "Sunway Flora Residences",
        "address": "Jalan Tiara, 58200, Kuala Lumpur",
        "facilities": [],
        "link": "https://www.propertyguru.com.my/condo/sunway-flora-residences-22081",
        "type": "Condominium",
        "coordinates": { "latitude": 3.058862, "longitude": 101.657047 }
    },
    {
        "PropertyId": "",
        "district": "Wangsa Maju",
        "region": "Kuala Lumpur",
        "name": "PPR Wangsa Sari",
        "address": "Jalan 2/27a, 53300, Kuala Lumpur",
        "facilities": [],
        "link": "https://www.propertyguru.com.my/condo/ppr-wangsa-sari-22080",
        "type": "Flat",
        "coordinates": { "latitude": 3.200441, "longitude": 101.726953 }
    },
    {
        "PropertyId": "",
        "district": "Setapak",
        "region": "Kuala Lumpur",
        "name": "Residensi Melati",
        "address": "Jalan Madrasah, 53200, Kuala Lumpur",
        "facilities": [],
        "link": "https://www.propertyguru.com.my/condo/residensi-melati-22079",
        "type": "Condominium",
        "coordinates": { "latitude": 3.216779, "longitude": 101.717487 }
    },
    {
        "PropertyId": "",
        "district": "Jalan Klang Lama (Old Klang Road)",
        "region": "Kuala Lumpur",
        "name": "Tria Residences",
        "address": "9 Seputeh, Off Jalan Klang Lama, 58100, Kuala Lumpur",
        "facilities": [],
        "link": "https://www.propertyguru.com.my/condo/tria-residences-22045",
        "type": "Condominium",
        "coordinates": { "latitude": 3.108327, "longitude": 101.676954 }
    },
    {
        "PropertyId": "",
        "district": "Jinjang",
        "region": "Kuala Lumpur",
        "name": "Taman Jinjang Baru",
        "address": "Jalan 9/32, Taman Jinjang Baru, 50200, Kuala Lumpur",
        "facilities": [],
        "link": "https://www.propertyguru.com.my/condo/taman-jinjang-baru-22044",
        "type": "Flat",
        "coordinates": { "latitude": 3.205911, "longitude": 101.65857 }
    },
    {
        "PropertyId": "",
        "district": "Bukit Jalil",
        "region": "Kuala Lumpur",
        "name": "Akasia",
        "address": "Jalan Bukit Jalil Indah 1, 57000, Kuala Lumpur",
        "facilities": [],
        "link": "https://www.propertyguru.com.my/condo/akasia-22043",
        "type": "Condominium",
        "coordinates": { "latitude": 3.051391, "longitude": 101.661502 }
    },
    {
        "PropertyId": "",
        "district": "Segambut",
        "region": "Kuala Lumpur",
        "name": "Azaran Hill",
        "address": "Jalan Kiara 3, Segambut Dalam, 50200, Kuala Lumpur, 50200, Kuala Lumpur",
        "facilities": [
            "Car Park",
            "Gymnasium room",
            "Jacuzzi",
            "Mini-Mart",
            "Squash court",
            "Swimming pool",
            "Tennis courts"
        ],
        "link": "https://www.propertyguru.com.my/condo/azaran-hill-22042",
        "type": "Condominium",
        "coordinates": { "latitude": 3.165607, "longitude": 101.652071 }
    },
    {
        "PropertyId": "",
        "district": "Taman Tun Dr Ismail",
        "region": "Kuala Lumpur",
        "name": "The Residence Condominium @ TTDI",
        "address": "Jalana Wan Kadir 3, 60000, Kuala Lumpur",
        "facilities": [
            "Car Park",
            "Gymnasium room",
            "Playground",
            "24 hours security",
            "Squash court",
            "Swimming pool"
        ],
        "link": "https://www.propertyguru.com.my/condo/the-residence-condominium-ttdi-22041",
        "type": "Condominium",
        "coordinates": { "latitude": 3.138175, "longitude": 101.630981 }
    },
    {
        "PropertyId": "",
        "district": "KL City Centre",
        "region": "Kuala Lumpur",
        "name": "Fahrenheit 88 (KL Plaza Suites)",
        "address": "Jalan Bukit Bintang, 55100, Kuala Lumpur",
        "facilities": [
            "Car Park",
            "Gymnasium room",
            "Mini-Mart",
            "Sauna",
            "24 hours security",
            "Squash court",
            "Swimming pool"
        ],
        "link": "https://www.propertyguru.com.my/condo/fahrenheit-88-kl-plaza-suites-22011",
        "type": "Service Residence",
        "coordinates": { "latitude": 3.146957, "longitude": 101.71347 }
    },
    {
        "PropertyId": "",
        "district": "KL City Centre",
        "region": "Kuala Lumpur",
        "name": "Tiong Nam Flat",
        "address": "Jalan Tiong Nam, 50350, Kuala Lumpur",
        "facilities": [],
        "link": "https://www.propertyguru.com.my/condo/tiong-nam-flat-22010",
        "type": "Flat",
        "coordinates": { "latitude": 3.164311, "longitude": 101.695319 }
    },
    {
        "PropertyId": "",
        "district": "Cheras",
        "region": "Kuala Lumpur",
        "name": "Sunway Velocity 3",
        "address": "Jalan Shahbandar, 55100, Kuala Lumpur",
        "facilities": [],
        "link": "https://www.propertyguru.com.my/condo/sunway-velocity-3-22008",
        "type": "Service Residence",
        "coordinates": { "latitude": 3.129673, "longitude": 101.727126 }
    },
    {
        "PropertyId": "",
        "district": "KL City Centre",
        "region": "Kuala Lumpur",
        "name": "The Regent Residences",
        "address": "Jalan Ampang, 50450, Kuala Lumpur",
        "facilities": [],
        "link": "https://www.propertyguru.com.my/condo/the-regent-residences-22007",
        "type": "Condominium",
        "coordinates": { "latitude": 3.158272, "longitude": 101.709625 }
    },
    {
        "PropertyId": "",
        "district": "Cheras",
        "region": "Kuala Lumpur",
        "name": "Taman Sri Bahtera",
        "address": "Jalan Payang, 56100, Kuala Lumpur",
        "facilities": [],
        "link": "https://www.propertyguru.com.my/condo/taman-sri-bahtera-22006",
        "type": "Flat",
        "coordinates": { "latitude": 3.104057, "longitude": 101.737663 }
    },
    {
        "PropertyId": "",
        "district": "Sri Petaling",
        "region": "Kuala Lumpur",
        "name": "Taman Sri Endah Flat",
        "address": "Taman Sri Endah, 57000, Kuala Lumpur",
        "facilities": [],
        "link": "https://www.propertyguru.com.my/condo/taman-sri-endah-flat-21979",
        "type": "Flat",
        "coordinates": { "latitude": 3.063817, "longitude": 101.687801 }
    },
    {
        "PropertyId": "",
        "district": "Taman Desa",
        "region": "Kuala Lumpur",
        "name": "The Address II",
        "address": "Jalan Desa Bakti 2, 58100, Kuala Lumpur",
        "facilities": [],
        "link": "https://www.propertyguru.com.my/condo/the-address-ii-21978",
        "type": "Condominium",
        "coordinates": { "latitude": 3.106571, "longitude": 101.69182 }
    },
    {
        "PropertyId": "",
        "district": "Cheras",
        "region": "Kuala Lumpur",
        "name": "Laman Seri Cahaya",
        "address": "Jalan Desa Cahaya, 56100, Kuala Lumpur",
        "facilities": [],
        "link": "https://www.propertyguru.com.my/condo/laman-seri-cahaya-21977",
        "type": "Apartment",
        "coordinates": { "latitude": 3.043994, "longitude": 101.744104 }
    },
    {
        "PropertyId": "",
        "district": "Setapak",
        "region": "Kuala Lumpur",
        "name": "Berlian Setapak 2 Residences",
        "address": "Jalan Semarak Api 4, 53100, Kuala Lumpur",
        "facilities": [],
        "link": "https://www.propertyguru.com.my/condo/berlian-setapak-2-residences-21976",
        "type": "Condominium",
        "coordinates": { "latitude": 3.197248, "longitude": 101.706999 }
    },
    {
        "PropertyId": "",
        "district": "Damansara Heights",
        "region": "Kuala Lumpur",
        "name": "10 Semantan (Semantan Avenue)",
        "address": "Jalan Semantan, 50490, Kuala Lumpur",
        "facilities": [
            "Barbeque Area",
            "Car Park",
            "Gymnasium room",
            "Jacuzzi",
            "Mini-Mart",
            "Nursery",
            "Sauna",
            "24 hours security",
            "Swimming pool"
        ],
        "link": "https://www.propertyguru.com.my/condo/10-semantan-semantan-avenue-21975",
        "type": "Service Residence",
        "coordinates": { "latitude": 3.150844, "longitude": 101.670454 }
    },
    {
        "PropertyId": "",
        "district": "Bukit Jalil",
        "region": "Kuala Lumpur",
        "name": "Vierra Residence",
        "address": "Jalan Mas, 58200, Kuala Lumpur",
        "facilities": [],
        "link": "https://www.propertyguru.com.my/condo/vierra-residence-21974",
        "type": "Condominium",
        "coordinates": { "latitude": 3.058771, "longitude": 101.648205 }
    },
    {
        "PropertyId": "",
        "district": "Dutamas",
        "region": "Kuala Lumpur",
        "name": "Papyrus North Kiara",
        "address": "Jalan Dutamas Dahlia, 51200, Kuala Lumpur",
        "facilities": [],
        "link": "https://www.propertyguru.com.my/condo/papyrus-north-kiara-21949",
        "type": "Condominium",
        "coordinates": { "latitude": 3.178741, "longitude": 101.656836 }
    },
    {
        "PropertyId": "",
        "district": "Setapak",
        "region": "Kuala Lumpur",
        "name": "Taman Setapak Indah Jaya",
        "address": "Taman Setapak Indah Jaya, 53000, Kuala Lumpur",
        "facilities": [],
        "link": "https://www.propertyguru.com.my/condo/taman-setapak-indah-jaya-21948",
        "type": "Flat",
        "coordinates": { "latitude": 3.198442, "longitude": 101.708834 }
    },
    {
        "PropertyId": "",
        "district": "Sentul",
        "region": "Kuala Lumpur",
        "name": "Jalan Sentul",
        "address": "Jalan Sentul, 51000, Kuala Lumpur",
        "facilities": [],
        "link": "https://www.propertyguru.com.my/condo/jalan-sentul-21947",
        "type": "Flat",
        "coordinates": { "latitude": 3.178553, "longitude": 101.691595 }
    },
    {
        "PropertyId": "",
        "district": "Cheras",
        "region": "Kuala Lumpur",
        "name": "Taman Tenaga",
        "address": "Taman Tenaga, 56000, Kuala Lumpur",
        "facilities": [],
        "link": "https://www.propertyguru.com.my/condo/taman-tenaga-21946",
        "type": "Flat",
        "coordinates": { "latitude": 3.114117, "longitude": 101.724872 }
    },
    {
        "PropertyId": "",
        "district": "Sentul",
        "region": "Kuala Lumpur",
        "name": "Sri Pangkor",
        "address": "Jalan Sentul, 51000, Kuala Lumpur",
        "facilities": [],
        "link": "https://www.propertyguru.com.my/condo/sri-pangkor-21945",
        "type": "Flat",
        "coordinates": { "latitude": 3.192121, "longitude": 101.692567 }
    },
    {
        "PropertyId": "",
        "district": "Batu Caves",
        "region": "Kuala Lumpur",
        "name": "Desa Bakti",
        "address": "Jalan 2/2B, 68100, Kuala Lumpur",
        "facilities": [],
        "link": "https://www.propertyguru.com.my/condo/desa-bakti-21944",
        "type": "Flat",
        "coordinates": { "latitude": 3.242798, "longitude": 101.663095 }
    },
    {
        "PropertyId": "",
        "district": "KL City Centre",
        "region": "Kuala Lumpur",
        "name": "Millennium Court",
        "address": "Jalan Elmu, Off Jalan Universiti, 59100 Kuala Lump, 59100, Kuala Lumpur",
        "facilities": [
            "Car Park",
            "Mini-Mart",
            "Playground",
            "24 hours security",
            "Squash court",
            "Tennis courts"
        ],
        "link": "https://www.propertyguru.com.my/condo/millennium-court-21907",
        "type": "Flat",
        "coordinates": { "latitude": 3.118361, "longitude": 101.648822 }
    },
    {
        "PropertyId": "",
        "district": "Setapak",
        "region": "Kuala Lumpur",
        "name": "Residensi Vista Wirajaya",
        "address": "No.2, Jalan 1/23E, Off Persiaran Pertahanan, 53000, Kuala Lumpur",
        "facilities": [],
        "link": "https://www.propertyguru.com.my/condo/residensi-vista-wirajaya-21906",
        "type": "Apartment",
        "coordinates": { "latitude": 3.216886, "longitude": 101.724012 }
    },
    {
        "PropertyId": "",
        "district": "Sri Petaling",
        "region": "Kuala Lumpur",
        "name": "Aster Hill",
        "address": "Jalan 2/149, 58200, Kuala Lumpur",
        "facilities": [],
        "link": "https://www.propertyguru.com.my/condo/aster-hill-21905",
        "type": "Service Residence",
        "coordinates": { "latitude": 3.075195, "longitude": 101.690486 }
    },
    {
        "PropertyId": "",
        "district": "Segambut",
        "region": "Kuala Lumpur",
        "name": "Taman Emas",
        "address": "Jalan Udang Gantung, 52000, Kuala Lumpur",
        "facilities": [],
        "link": "https://www.propertyguru.com.my/condo/taman-emas-21904",
        "type": "Flat",
        "coordinates": { "latitude": 3.192413, "longitude": 101.656452 }
    },
    {
        "PropertyId": "",
        "district": "Setapak",
        "region": "Kuala Lumpur",
        "name": "SOHO @ Zetapark",
        "address": "Jalan Genting Kelang, 53100, Kuala Lumpur",
        "facilities": [],
        "link": "https://www.propertyguru.com.my/condo/soho-zetapark-21903",
        "type": "Service Residence",
        "coordinates": { "latitude": 3.203148, "longitude": 101.721117 }
    },
    {
        "PropertyId": "",
        "district": "KL City Centre",
        "region": "Kuala Lumpur",
        "name": "Scarletz",
        "address": "Jalan Yap Kwan Seng, 50450, Kuala Lumpur",
        "facilities": [],
        "link": "https://www.propertyguru.com.my/condo/scarletz-21875",
        "type": "Service Residence",
        "coordinates": { "latitude": 3.163262, "longitude": 101.713413 }
    },
    {
        "PropertyId": "",
        "district": "Batu Caves",
        "region": "Kuala Lumpur",
        "name": "Taman Sri Murni Fasa 1",
        "address": "Jalan 13/2A, 68100, Kuala Lumpur",
        "facilities": ["Car Park", "24 hours security"],
        "link": "https://www.propertyguru.com.my/condo/taman-sri-murni-fasa-1-21874",
        "type": "Apartment",
        "coordinates": { "latitude": 3.234571, "longitude": 101.661815 }
    },
    {
        "PropertyId": "",
        "district": "Batu Caves",
        "region": "Kuala Lumpur",
        "name": "M Nova",
        "address": "Jalan Lingkaran Tengah 2, 68100, Kuala Lumpur",
        "facilities": [],
        "link": "https://www.propertyguru.com.my/condo/m-nova-21873",
        "type": "Service Residence",
        "coordinates": { "latitude": 3.232815, "longitude": 101.661516 }
    },
    {
        "PropertyId": "",
        "district": "Sungai Besi",
        "region": "Kuala Lumpur",
        "name": "Vista Adesa (Residensi Desa Timur)",
        "address": "Jalan Sungai Besi, 57100, Kuala Lumpur",
        "facilities": [],
        "link": "https://www.propertyguru.com.my/condo/vista-adesa-residensi-desa-timur-21872",
        "type": "Apartment",
        "coordinates": { "latitude": 3.100583, "longitude": 101.699667 }
    },
    {
        "PropertyId": "",
        "district": "Ampang",
        "region": "Kuala Lumpur",
        "name": "8 Ampang Hilir Apartments",
        "address": "8 Jalan Ampang Hilir, Taman U Thant, 55000, Kuala Lumpur",
        "facilities": [
            "Car Park",
            "Gymnasium room",
            "Playground",
            "Sauna",
            "24 hours security",
            "Squash court",
            "Swimming pool",
            "Tennis courts"
        ],
        "link": "https://www.propertyguru.com.my/condo/8-ampang-hilir-apartments-21871",
        "type": "Service Residence",
        "coordinates": { "latitude": 3.15759, "longitude": 101.729562 }
    },
    {
        "PropertyId": "",
        "district": "KL City Centre",
        "region": "Kuala Lumpur",
        "name": "8@8",
        "address": "Jalan Perumahan Gurney, Kampung Datuk keramat, 54000, Kuala Lumpur",
        "facilities": [],
        "link": "https://www.propertyguru.com.my/condo/8-8-21870",
        "type": "Condominium",
        "coordinates": { "latitude": 3.17003, "longitude": 101.717073 }
    },
    {
        "PropertyId": "",
        "district": "Mont Kiara",
        "region": "Kuala Lumpur",
        "name": "Kiara Kasih",
        "address": "Jalan Duta Kiara, 50480, Kuala Lumpur",
        "facilities": [],
        "link": "https://www.propertyguru.com.my/condo/kiara-kasih-21869",
        "type": "Condominium",
        "coordinates": { "latitude": 3.174676, "longitude": 101.647792 }
    },
    {
        "PropertyId": "",
        "district": "Setapak",
        "region": "Kuala Lumpur",
        "name": "Jasmin",
        "address": "Jalan 3/27, 53300, Kuala Lumpur",
        "facilities": [],
        "link": "https://www.propertyguru.com.my/condo/jasmin-21868",
        "type": "Apartment",
        "coordinates": { "latitude": 3.196831, "longitude": 101.728903 }
    },
    {
        "PropertyId": "",
        "district": "Sri Petaling",
        "region": "Kuala Lumpur",
        "name": "Taman Sri Endah Apartment",
        "address": "Taman Sri Endah, 57000, Kuala Lumpur",
        "facilities": [
            "Barbeque Area",
            "Car Park",
            "Mini-Mart",
            "Playground",
            "24 hours security"
        ],
        "link": "https://www.propertyguru.com.my/condo/taman-sri-endah-apartment-21867",
        "type": "Apartment",
        "coordinates": { "latitude": 3.064066, "longitude": 101.691026 }
    },
    {
        "PropertyId": "",
        "district": "Kuchai Lama",
        "region": "Kuala Lumpur",
        "name": "Happy Garden Flat",
        "address": "Jalan 1/127 A, 57100, Kuala Lumpur",
        "facilities": [],
        "link": "https://www.propertyguru.com.my/condo/happy-garden-flat-21837",
        "type": "Flat",
        "coordinates": { "latitude": 3.08208, "longitude": 101.688779 }
    },
    {
        "PropertyId": "",
        "district": "Setapak",
        "region": "Kuala Lumpur",
        "name": "Flat Taman Melati",
        "address": "Jalan Taman Melati, 53100, Kuala Lumpur",
        "facilities": [],
        "link": "https://www.propertyguru.com.my/condo/flat-taman-melati-21836",
        "type": "Flat",
        "coordinates": { "latitude": 3.224636, "longitude": 101.725773 }
    },
    {
        "PropertyId": "",
        "district": "Brickfields",
        "region": "Kuala Lumpur",
        "name": "Tong Weng Mansion",
        "address": "112, Jalan Berhala, 50470, Kuala Lumpur",
        "facilities": [],
        "link": "https://www.propertyguru.com.my/condo/tong-weng-mansion-21835",
        "type": "Flat",
        "coordinates": { "latitude": 3.128097, "longitude": 101.687611 }
    },
    {
        "PropertyId": "",
        "district": "Jalan Kuching",
        "region": "Kuala Lumpur",
        "name": "Taman Sri Kuching",
        "address": "Jalan Matang 2, Off Jalan Kuching, 51200, Kuala Lumpur",
        "facilities": ["Car Park", "24 hours security"],
        "link": "https://www.propertyguru.com.my/condo/taman-sri-kuching-21834",
        "type": "Flat",
        "coordinates": { "latitude": 3.197977, "longitude": 101.671611 }
    },
    {
        "PropertyId": "",
        "district": "Setapak",
        "region": "Kuala Lumpur",
        "name": "M Astra",
        "address": "Jalan Usahawan 5, 53300, Kuala Lumpur",
        "facilities": [],
        "link": "https://www.propertyguru.com.my/condo/m-astra-21833",
        "type": "Service Residence",
        "coordinates": { "latitude": 3.198968, "longitude": 101.725068 }
    },
    {
        "PropertyId": "",
        "district": "Bangsar",
        "region": "Kuala Lumpur",
        "name": "6 Kapas",
        "address": "6, Jalan Kapas, 59100, Kuala Lumpur",
        "facilities": [],
        "link": "https://www.propertyguru.com.my/condo/6-kapas-21832",
        "type": "Condominium",
        "coordinates": { "latitude": 3.136371, "longitude": 101.662196 }
    },
    {
        "PropertyId": "",
        "district": "Bukit Jalil",
        "region": "Kuala Lumpur",
        "name": "Alam Sutera",
        "address": "Alam Sutera, Alam sutera 12, 5700, Kuala Lumpur",
        "facilities": [
            "Car Park",
            "Jogging track",
            "Mini-Mart",
            "Playground",
            "24 hours security"
        ],
        "link": "https://www.propertyguru.com.my/condo/alam-sutera-21831",
        "type": "Apartment",
        "coordinates": { "latitude": 3.05315, "longitude": 101.662018 }
    },
    {
        "PropertyId": "",
        "district": "KL City Centre",
        "region": "Kuala Lumpur",
        "name": "Jalan Choo Cheng Khay",
        "address": "Jalan Choo Cheng Khay, 50460, Kuala Lumpur",
        "facilities": [],
        "link": "https://www.propertyguru.com.my/condo/jalan-choo-cheng-khay-21807",
        "type": "Flat",
        "coordinates": { "latitude": 3.136417, "longitude": 101.702118 }
    },
    {
        "PropertyId": "",
        "district": "Setiawangsa",
        "region": "Kuala Lumpur",
        "name": "Kelumpuk Dahlia / Melati",
        "address": "Jalan 16/56, 54200, Kuala Lumpur",
        "facilities": [],
        "link": "https://www.propertyguru.com.my/condo/kelumpuk-dahlia-melati-21806",
        "type": "Flat",
        "coordinates": { "latitude": 3.183745, "longitude": 101.75338 }
    },
    {
        "PropertyId": "",
        "district": "Cheras",
        "region": "Kuala Lumpur",
        "name": "Platinum Mira Residences",
        "address": "Lorong Peel, 55100, Kuala Lumpur",
        "facilities": [],
        "link": "https://www.propertyguru.com.my/condo/platinum-mira-residences-21805",
        "type": "Service Residence",
        "coordinates": { "latitude": 3.128245, "longitude": 101.72849 }
    },
    {
        "PropertyId": "",
        "district": "Damansara Heights",
        "region": "Kuala Lumpur",
        "name": "The Peak",
        "address": "Jalan Teruntong, 50490, Kuala Lumpur",
        "facilities": [],
        "link": "https://www.propertyguru.com.my/condo/the-peak-21804",
        "type": "Condominium",
        "coordinates": { "latitude": 3.158296, "longitude": 101.662402 }
    },
    {
        "PropertyId": "",
        "district": "Desa Petaling",
        "region": "Kuala Lumpur",
        "name": "PPR Seri Malaysia",
        "address": "Jalan 3/125, 57100, Kuala Lumpur",
        "facilities": [],
        "link": "https://www.propertyguru.com.my/condo/ppr-seri-malaysia-21803",
        "type": "Flat",
        "coordinates": { "latitude": 3.081243, "longitude": 101.711124 }
    },
    {
        "PropertyId": "",
        "district": "Keramat",
        "region": "Kuala Lumpur",
        "name": "Service Suites @ Pavilion Embassy",
        "address": "Jalan Ampang, 50450, Kuala Lumpur",
        "facilities": [],
        "link": "https://www.propertyguru.com.my/condo/service-suites-pavilion-embassy-21767",
        "type": "Service Residence",
        "coordinates": { "latitude": 3.160504, "longitude": 101.723225 }
    },
    {
        "PropertyId": "",
        "district": "Jalan Klang Lama (Old Klang Road)",
        "region": "Kuala Lumpur",
        "name": "Benteng 8",
        "address": "Jalan Klang Lama, Off 5 1/2 Mile, 58200, Kuala Lumpur",
        "facilities": [],
        "link": "https://www.propertyguru.com.my/condo/benteng-8-21766",
        "type": "Condominium",
        "coordinates": { "latitude": 3.082534, "longitude": 101.664878 }
    },
    {
        "PropertyId": "",
        "district": "KL City Centre",
        "region": "Kuala Lumpur",
        "name": "Skylon Residences",
        "address": "Changkat Raja Chulan, 50200, Kuala Lumpur",
        "facilities": [],
        "link": "https://www.propertyguru.com.my/condo/skylon-residences-21765",
        "type": "Service Residence",
        "coordinates": { "latitude": 3.148743, "longitude": 101.706344 }
    },
    {
        "PropertyId": "",
        "district": "KL City Centre",
        "region": "Kuala Lumpur",
        "name": "Malayan Mansion",
        "address": "Jalan Masjid India, 50100, Kuala Lumpur",
        "facilities": [],
        "link": "https://www.propertyguru.com.my/condo/malayan-mansion-21764",
        "type": "Flat",
        "coordinates": { "latitude": 3.15212, "longitude": 101.694471 }
    },
    {
        "PropertyId": "",
        "district": "Cheras",
        "region": "Kuala Lumpur",
        "name": "Manda'rina Court",
        "address": "Jalan 10/142, 56000, Kuala Lumpur",
        "facilities": ["Car Park", "24 hours security"],
        "link": "https://www.propertyguru.com.my/condo/manda-rina-court-21763",
        "type": "Apartment",
        "coordinates": { "latitude": 3.075916, "longitude": 101.739382 }
    },
    {
        "PropertyId": "",
        "district": "Cheras",
        "region": "Kuala Lumpur",
        "name": "Perumahan Awam Seri Pulau Pinang",
        "address": "Jalan Ikan Emas, 56100, Kuala Lumpur",
        "facilities": [],
        "link": "https://www.propertyguru.com.my/condo/perumahan-awam-seri-pulau-pinang-21762",
        "type": "Flat",
        "coordinates": { "latitude": 3.11736, "longitude": 101.720257 }
    },
    {
        "PropertyId": "",
        "district": "Bangsar",
        "region": "Kuala Lumpur",
        "name": "Alfa Bangsar",
        "address": "Jalan Tandok Off Jalan Maarof, 59100, Kuala Lumpur",
        "facilities": [],
        "link": "https://www.propertyguru.com.my/condo/alfa-bangsar-21761",
        "type": "Service Residence",
        "coordinates": { "latitude": 3.126737, "longitude": 101.675926 }
    },
    {
        "PropertyId": "",
        "district": "Setapak",
        "region": "Kuala Lumpur",
        "name": "Flat Danau Kota",
        "address": "Jalan 2/23D, 53300, Kuala Lumpur",
        "facilities": [],
        "link": "https://www.propertyguru.com.my/condo/flat-danau-kota-21730",
        "type": "Flat",
        "coordinates": { "latitude": 3.200809, "longitude": 101.712644 }
    }
]
